{"type": "FeatureCollection", "crs": {"type": "name", "properties": {"name": "urn:ogc:def:crs:OGC:1.3:CRS84"}}, "features": [{"type": "Feature", "properties": {"city": "Delhi"}, "geometry": {"type": "Point", "coordinates": [77.23, 28.66]}}, {"type": "Feature", "properties": {"city": "Mumbai"}, "geometry": {"type": "Point", "coordinates": [72.8333, 18.9667]}}, {"type": "Feature", "properties": {"city": "Bangalore"}, "geometry": {"type": "Point", "coordinates": [77.598, 12.9699]}}, {"type": "Feature", "properties": {"city": "Pune"}, "geometry": {"type": "Point", "coordinates": [73.8553, 18.5196]}}, {"type": "Feature", "properties": {"city": "Lucknow"}, "geometry": {"type": "Point", "coordinates": [80.947, 26.847]}}, {"type": "Feature", "properties": {"city": "Jaipur"}, "geometry": {"type": "Point", "coordinates": [75.8667, 26.9167]}}, {"type": "Feature", "properties": {"city": "Indore"}, "geometry": {"type": "Point", "coordinates": [75.8472, 22.7206]}}, {"type": "Feature", "properties": {"city": "Vadodara"}, "geometry": {"type": "Point", "coordinates": [73.2, 22.3]}}, {"type": "Feature", "properties": {"city": "Visakhapatnam"}, "geometry": {"type": "Point", "coordinates": [83.3167, 17.7333]}}, {"type": "Feature", "properties": {"city": "Patna"}, "geometry": {"type": "Point", "coordinates": [85.1414, 25.61]}}, {"type": "Feature", "properties": {"city": "Madurai"}, "geometry": {"type": "Point", "coordinates": [78.1194, 9.9197]}}, {"type": "Feature", "properties": {"city": "Jamshedpur"}, "geometry": {"type": "Point", "coordinates": [86.1833, 22.8]}}, {"type": "Feature", "properties": {"city": "Nashik"}, "geometry": {"type": "Point", "coordinates": [73.7833, 20.0]}}, {"type": "Feature", "properties": {"city": "Meerut"}, "geometry": {"type": "Point", "coordinates": [77.7, 28.99]}}, {"type": "Feature", "properties": {"city": "Jabalpur"}, "geometry": {"type": "Point", "coordinates": [79.9333, 23.1667]}}, {"type": "Feature", "properties": {"city": "Amritsar"}, "geometry": {"type": "Point", "coordinates": [74.85, 31.6167]}}, {"type": "Feature", "properties": {"city": "Bhiwandi"}, "geometry": {"type": "Point", "coordinates": [73.0667, 19.3]}}, {"type": "Feature", "properties": {"city": "Gwalior"}, "geometry": {"type": "Point", "coordinates": [78.1931, 26.215]}}, {"type": "Feature", "properties": {"city": "Bhilai"}, "geometry": {"type": "Point", "coordinates": [81.4333, 21.2167]}}, {"type": "Feature", "properties": {"city": "Mysore"}, "geometry": {"type": "Point", "coordinates": [76.6531, 12.3086]}}, {"type": "Feature", "properties": {"city": "Raipur"}, "geometry": {"type": "Point", "coordinates": [81.6337, 21.2379]}}, {"type": "Feature", "properties": {"city": "Kota"}, "geometry": {"type": "Point", "coordinates": [75.83, 25.18]}}, {"type": "Feature", "properties": {"city": "Bareilly"}, "geometry": {"type": "Point", "coordinates": [79.415, 28.364]}}, {"type": "Feature", "properties": {"city": "Jodhpur"}, "geometry": {"type": "Point", "coordinates": [73.0168, 26.2918]}}, {"type": "Feature", "properties": {"city": "Coimbatore"}, "geometry": {"type": "Point", "coordinates": [76.9667, 11.0]}}, {"type": "Feature", "properties": {"city": "Dispur"}, "geometry": {"type": "Point", "coordinates": [91.77, 26.15]}}, {"type": "Feature", "properties": {"city": "Jalandhar"}, "geometry": {"type": "Point", "coordinates": [75.5792, 31.3256]}}, {"type": "Feature", "properties": {"city": "Thiruvananthapuram"}, "geometry": {"type": "Point", "coordinates": [76.8997, 8.5]}}, {"type": "Feature", "properties": {"city": "Warangal"}, "geometry": {"type": "Point", "coordinates": [79.6011, 17.9756]}}, {"type": "Feature", "properties": {"city": "Salem"}, "geometry": {"type": "Point", "coordinates": [78.1667, 11.65]}}, {"type": "Feature", "properties": {"city": "Kochi"}, "geometry": {"type": "Point", "coordinates": [76.2833, 9.9667]}}, {"type": "Feature", "properties": {"city": "Gorakhpur"}, "geometry": {"type": "Point", "coordinates": [83.3667, 26.7611]}}, {"type": "Feature", "properties": {"city": "Shimoga"}, "geometry": {"type": "Point", "coordinates": [75.56, 13.9304]}}, {"type": "Feature", "properties": {"city": "Mangalore"}, "geometry": {"type": "Point", "coordinates": [74.8806, 12.8703]}}, {"type": "Feature", "properties": {"city": "Cuttack"}, "geometry": {"type": "Point", "coordinates": [85.8667, 20.45]}}, {"type": "Feature", "properties": {"city": "Nellore"}, "geometry": {"type": "Point", "coordinates": [79.9667, 14.4333]}}, {"type": "Feature", "properties": {"city": "Ajmer"}, "geometry": {"type": "Point", "coordinates": [74.639, 26.468]}}, {"type": "Feature", "properties": {"city": "Agartala"}, "geometry": {"type": "Point", "coordinates": [91.2667, 23.8333]}}, {"type": "Feature", "properties": {"city": "Ujjain"}, "geometry": {"type": "Point", "coordinates": [75.7772, 23.1828]}}, {"type": "Feature", "properties": {"city": "Belgaum"}, "geometry": {"type": "Point", "coordinates": [74.5, 15.8667]}}, {"type": "Feature", "properties": {"city": "Gulbarga"}, "geometry": {"type": "Point", "coordinates": [76.8333, 17.3333]}}, {"type": "Feature", "properties": {"city": "Gaya"}, "geometry": {"type": "Point", "coordinates": [85.0167, 24.75]}}, {"type": "Feature", "properties": {"city": "Jalgaon"}, "geometry": {"type": "Point", "coordinates": [75.5667, 21.0167]}}, {"type": "Feature", "properties": {"city": "Kurnool"}, "geometry": {"type": "Point", "coordinates": [78.035, 15.8222]}}, {"type": "Feature", "properties": {"city": "Udaipur"}, "geometry": {"type": "Point", "coordinates": [73.6833, 24.5833]}}, {"type": "Feature", "properties": {"city": "Bellary"}, "geometry": {"type": "Point", "coordinates": [76.915, 15.15]}}, {"type": "Feature", "properties": {"city": "Calicut"}, "geometry": {"type": "Point", "coordinates": [75.7667, 11.25]}}, {"type": "Feature", "properties": {"city": "Akola"}, "geometry": {"type": "Point", "coordinates": [77.0, 20.7333]}}, {"type": "Feature", "properties": {"city": "Muzaffarnagar"}, "geometry": {"type": "Point", "coordinates": [77.7033, 29.4708]}}, {"type": "Feature", "properties": {"city": "Parbhani"}, "geometry": {"type": "Point", "coordinates": [76.76, 19.2704]}}, {"type": "Feature", "properties": {"city": "Rohtak"}, "geometry": {"type": "Point", "coordinates": [76.5667, 28.9]}}, {"type": "Feature", "properties": {"city": "Alwar"}, "geometry": {"type": "Point", "coordinates": [76.6167, 27.5667]}}, {"type": "Feature", "properties": {"city": "Muzaffarpur"}, "geometry": {"type": "Point", "coordinates": [85.3833, 26.12]}}, {"type": "Feature", "properties": {"city": "Mathura"}, "geometry": {"type": "Point", "coordinates": [77.6833, 27.4833]}}, {"type": "Feature", "properties": {"city": "Brahmapur"}, "geometry": {"type": "Point", "coordinates": [84.8, 19.32]}}, {"type": "Feature", "properties": {"city": "Kulti"}, "geometry": {"type": "Point", "coordinates": [86.85, 23.73]}}, {"type": "Feature", "properties": {"city": "Sambalpur"}, "geometry": {"type": "Point", "coordinates": [83.9701, 21.4704]}}, {"type": "Feature", "properties": {"city": "Hisar"}, "geometry": {"type": "Point", "coordinates": [75.7367, 29.1489]}}, {"type": "Feature", "properties": {"city": "Bhuj"}, "geometry": {"type": "Point", "coordinates": [69.81, 23.2504]}}, {"type": "Feature", "properties": {"city": "Ichalkaranji"}, "geometry": {"type": "Point", "coordinates": [74.47, 16.7]}}, {"type": "Feature", "properties": {"city": "Tirupati"}, "geometry": {"type": "Point", "coordinates": [79.42, 13.65]}}, {"type": "Feature", "properties": {"city": "Hospet"}, "geometry": {"type": "Point", "coordinates": [76.4, 15.2667]}}, {"type": "Feature", "properties": {"city": "Anantapur"}, "geometry": {"type": "Point", "coordinates": [77.6, 14.6833]}}, {"type": "Feature", "properties": {"city": "Ongole"}, "geometry": {"type": "Point", "coordinates": [80.05, 15.5]}}, {"type": "Feature", "properties": {"city": "Bharatpur"}, "geometry": {"type": "Point", "coordinates": [77.49, 27.2172]}}, {"type": "Feature", "properties": {"city": "Begusarai"}, "geometry": {"type": "Point", "coordinates": [86.13, 25.42]}}, {"type": "Feature", "properties": {"city": "Porbandar"}, "geometry": {"type": "Point", "coordinates": [69.6047, 21.6425]}}, {"type": "Feature", "properties": {"city": "Vizianagaram"}, "geometry": {"type": "Point", "coordinates": [83.4167, 18.1167]}}, {"type": "Feature", "properties": {"city": "Puducherry"}, "geometry": {"type": "Point", "coordinates": [79.83, 11.93]}}, {"type": "Feature", "properties": {"city": "Sambhal"}, "geometry": {"type": "Point", "coordinates": [78.55, 28.58]}}, {"type": "Feature", "properties": {"city": "Shimla"}, "geometry": {"type": "Point", "coordinates": [77.1722, 31.1033]}}, {"type": "Feature", "properties": {"city": "Shillong"}, "geometry": {"type": "Point", "coordinates": [91.8789, 25.5744]}}, {"type": "Feature", "properties": {"city": "New Delhi"}, "geometry": {"type": "Point", "coordinates": [77.2, 28.7]}}, {"type": "Feature", "properties": {"city": "Port Blair"}, "geometry": {"type": "Point", "coordinates": [92.75, 11.6667]}}, {"type": "Feature", "properties": {"city": "Gangtok"}, "geometry": {"type": "Point", "coordinates": [88.62, 27.33]}}, {"type": "Feature", "properties": {"city": "Panaji"}, "geometry": {"type": "Point", "coordinates": [73.83, 15.48]}}, {"type": "Feature", "properties": {"city": "Panchkula"}, "geometry": {"type": "Point", "coordinates": [76.8537, 30.6915]}}]}